[
  {
    "store_name": "김밥천국",
    "category": "분식",
    "rating": 4.11,
    "visited_review": 488,
    "blog_review": 6,
    "address": "서울 금천구 가산디지털1로 25 1층 103호",
    "tell_num": "02-3402-7070",
    "business_hours": "영업시간 수정 제안하기",
    "recommand": 1
  },
  {
    "store_name": "명백집 가산점",
    "category": "국밥",
    "rating": 0.0,
    "visited_review": 23,
    "blog_review": 12,
    "address": "서울 금천구 가산디지털1로 25 대륭테크노타운 17차 101호",
    "tell_num": "0507-1375-6823",
    "business_hours": "평일 11:00 - 20:00 매주 일요일 휴무",
    "recommand": 0
  },
  {
    "store_name": "도원중식뷔페 가산직영점",
    "category": "중식당",
    "rating": 0.0,
    "visited_review": 1016,
    "blog_review": 416,
    "address": "독산역 2번출구 도보1분 디지털 엠파이어 건물1층",
    "tell_num": "0507-1337-6616",
    "business_hours": "평일 11:00 -  20:00 15:00 - 16:30 브레이크타임",
    "recommand": 0
  },
  {
    "store_name": "본죽&비빔밥 독산역점",
    "category": "죽",
    "rating": 4.31,
    "visited_review": 650,
    "blog_review": 14,
    "address": "서울 금천구 범안로 1130 디지털엠파이어빌딩 ",
    "tell_num": "0507-1337-6616",
    "business_hours": "평일 09:00 - 21:00 주말 10:00 - 16:30",
    "recommand": 0
  },
  {
    "store_name": "미각양꼬치",
    "category": "요리주점",
    "rating": 0.0,
    "visited_review": 20,
    "blog_review": 275,
    "address": "서울 금천구 범안로 1130 디지털엠파이어빌딩 1층 ",
    "tell_num": "070-4488-6197",
    "business_hours": "평일 11:00 - 23:00 주말 16:00 - 21:00",
    "recommand": 0
  },
  {
    "store_name": "오리정 독산본점",
    "category": "오리요리, 고기",
    "rating": 0.0,
    "visited_review": 51,
    "blog_review": 8,
    "address": "서울 금천구 범안로 1130 디지털엠파이어빌딩 1층 ",
    "tell_num": "0507-1373-9995",
    "business_hours": "평일 11:30 - 21:30 주말 16:00 - 21:30 매주 일요일 휴무",
    "recommand": 0
  },
  {
    "store_name": "제주꿀꿀두루치기",
    "category": "고기",
    "rating": 4.09,
    "visited_review": 256,
    "blog_review": 34,
    "address": "서울 금천구 범안로 1138 고려테크온",
    "tell_num": "0507-1435-9935",
    "business_hours": "평일 11:00 - 22:00  브레이크 타임 14:00 -16:00 매주 주말 휴무",
    "recommand": 0
  },
  {
    "store_name": "황소곱창",
    "category": "곱창,막창,양",
    "rating": 4.54,
    "visited_review": 99,
    "blog_review": 63,
    "address": "서울 금천구 범안로 1138 고려테크온 105호",
    "tell_num": "02-866-3397",
    "business_hours": "15:00 - 22:00 점심시간 곱창 예약하면 영업시작",
    "recommand": 0
  },
  {
    "store_name": "동보성",
    "category": "중식당",
    "rating": 4.35,
    "visited_review": 584,
    "blog_review": 36,
    "address": "서울 금천구 범안로 1138 고려테크온 105호",
    "tell_num": "02-866-3397",
    "business_hours": "평일 10:00 - 21:00 토요일 10:00 - 20:00 매주 일요일 휴무",
    "recommand": 1
  },
  {
    "store_name": "김치도가 독산역점",
    "category": "찌개,전골",
    "rating": 4.05,
    "visited_review": 713,
    "blog_review": 82,
    "address": "서울 금천구 가산디지털1로 2 우림라이온스벨리 2차 1층 115~116호",
    "tell_num": "02-865-6042",
    "business_hours": "평일 11:00 - 22:00 토 10:00 - 20:00 일 10:00 - 14:30",
    "recommand": 0
  },
  {
    "store_name": "샐러드박스 독산역점",
    "category": "다이어트,샐러드",
    "rating": 0.0,
    "visited_review": 771,
    "blog_review": 126,
    "address": "서울 금천구 가산디지털1로 2 우림라이온스밸리2차 1층 118호 샐러드박스 독산역점",
    "tell_num": "0507-1398-3224",
    "business_hours": "평일 11:00 - 22:00 토 10:00 - 20:00 일 10:00 - 14:30",
    "recommand": 0
  },
  {
    "store_name": "원조감자탕 일미집 독산역점",
    "category": "국밥,감자탕",
    "rating": 0.0,
    "visited_review": 416,
    "blog_review": 78,
    "address": "서울 금천구 가산디지털1로 2 1층 107,108",
    "tell_num": "0507-1343-6683",
    "business_hours": "매일 11:00 - 22:00 15:00 - 17:00 브레이크타임",
    "recommand": 0
  },
  {
    "store_name": "명가순대국",
    "category": "국밥,순댓국",
    "rating": 4.3,
    "visited_review": 598,
    "blog_review": 30,
    "address": "서울 금천구 가산디지털1로 2",
    "tell_num": "0507-1343-6683",
    "business_hours": "평일 07:30 - 22:00 토 09:00 - 15:00 일요일 정기 휴무",
    "recommand": 0
  },
  {
    "store_name": "값진백암순대",
    "category": "국밥,순댓국",
    "rating": 4.54,
    "visited_review": 493,
    "blog_review": 42,
    "address": "서울 금천구 가산디지털1로 30 에이스하이엔드타워10차 101호",
    "tell_num": "02-2622-8282",
    "business_hours": "평일 11:00 - 21:00 매주 주말 휴무",
    "recommand": 0
  },
  {
    "store_name": "동남집 대륭17차",
    "category": "국밥,한식",
    "rating": 4.37,
    "visited_review": 1127,
    "blog_review": 49,
    "address": "서울 금천구 가산디지털1로 25 104호",
    "tell_num": "02-2622-8282",
    "business_hours": "평일 11:00 - 22:00 토 11:00 - 19:30 일요일 휴무",
    "recommand": 0
  },
  {
    "store_name": "더진국 수육국밥 가산대륭20차점",
    "category": "국밥",
    "rating": 4.06,
    "visited_review": 267,
    "blog_review": 15,
    "address": "서울 금천구 가산디지털1로 5 1층 128호(대륭20차",
    "tell_num": "02-2224-0980",
    "business_hours": "평일 11:00 - 21:30 토 11:00 - 17:00 일요일 휴무",
    "recommand": 1
  },
  {
    "store_name": "담소소사골순대육개장 가산4호점",
    "category": "국밥,순댓국",
    "rating": 4.28,
    "visited_review": 638,
    "blog_review": 24,
    "address": "서울 금천구 가산디지털1로 5 대륭테크노타운20차 1층",
    "tell_num": "02-2225-8449",
    "business_hours": "영업시간 수정 제안하기",
    "recommand": 1
  },
  {
    "store_name": "국밥대장 가산SKV1점",
    "category": "국밥,한식",
    "rating": 0.0,
    "visited_review": 67,
    "blog_review": 2,
    "address": "서울 금천구 가산디지털1로 16 지하1층 B124호",
    "tell_num": "0507-1423-2397",
    "business_hours": "평일 10:30 - 15:00 주말 휴무",
    "recommand": 0
  },
  {
    "store_name": "배부장찌개 독산점",
    "category": "찌개,전골",
    "rating": 0.0,
    "visited_review": 56,
    "blog_review": 6,
    "address": "서울 금천구 가산디지털1로 5 1층 125호",
    "tell_num": "02-2224-0935",
    "business_hours": "평일 11:00 - 21:30 주말 휴무",
    "recommand": 0
  },
  {
    "store_name": "히나타",
    "category": "일식,우동,소바",
    "rating": 0.0,
    "visited_review": 139,
    "blog_review": 72,
    "address": "서울 금천구 가산디지털1로 16 107-1R호",
    "tell_num": "0507-1305-2138",
    "business_hours": "평일 10:30 - 21:00 토 11:00 - 20:00 일요일 휴무",
    "recommand": 0
  },
  {
    "store_name": "카츠누리",
    "category": "일식,돈가스",
    "rating": 0.0,
    "visited_review": 98,
    "blog_review": 122,
    "address": "서울 금천구 가산디지털1로 5 2층 208호",
    "tell_num": "0507-1378-2457",
    "business_hours": "평일 11:00 - 21:00 매주 주말 휴무",
    "recommand": 0
  },
  {
    "store_name": "한라산도새기 가산점",
    "category": "찌개,육류",
    "rating": 0.0,
    "visited_review": 56,
    "blog_review": 27,
    "address": "서울 금천구 가산디지털1로 19 대륭테크노타운 1층 101호",
    "tell_num": "0507-1378-2457",
    "business_hours": "평일 11:00 - 22:00 토 11:30 - 15:00 매주 일요일 휴무",
    "recommand": 0
  },
  {
    "store_name": "일등카레",
    "category": "일식,카레,돈가스",
    "rating": 4.07,
    "visited_review": 362,
    "blog_review": 52,
    "address": "서울 금천구 가산디지털1로 24",
    "tell_num": "0507-1378-2457",
    "business_hours": "평일 10:00 - 21:30 매주 주말 휴무",
    "recommand": 1
  }
]